,id,start,name,lat,lon,geometry
0,164,2013-07-01 00:00:00,E 47 St & 2 Ave,40.75323098,-73.97032517,POINT (992471.6913760398 213700.4296134594)
1,388,2013-07-01 00:00:02,W 26 St & 10 Ave,40.749717753,-74.002950346,POINT (983432.5357034664 212419.0687267594)
2,293,2013-07-01 00:01:04,Lafayette St & E 8 St,40.73028666,-73.9907647,POINT (986809.6082826314 205339.8267585847)
3,531,2013-07-01 00:01:06,Forsyth St & Broome St,40.71893904,-73.99266288,POINT (986283.864757934 201205.4881310944)
4,382,2013-07-01 00:01:10,University Pl & E 14 St,40.73492695,-73.99200509,POINT (986465.6738667039 207030.395932173)
5,511,2013-07-01 00:01:23,E 14 St & Avenue B,40.72938685,-73.97772429,POINT (990423.9046070547 205012.6479907389)
6,224,2013-07-01 00:02:16,Spruce St & Nassau St,40.71146364,-74.00552427,POINT (982718.4892336929 198481.9353036597)
7,432,2013-07-01 00:02:16,E 7 St & Avenue A,40.72621788,-73.98379855,POINT (988740.5847689568 203857.7239963206)
8,173,2013-07-01 00:02:23,Broadway & W 49 St,40.76064679,-73.98442659,POINT (988564.2797589763 216401.2417022758)
9,146,2013-07-01 00:02:23,Hudson St & Reade St,40.71625008,-74.0091059,POINT (981725.7239503188 200225.8638017526)
10,251,2013-07-01 00:02:24,Mott St & Prince St,40.72317958,-73.99480012,POINT (985691.3257233549 202750.4048433288)
11,479,2013-07-01 00:02:24,9 Ave & W 45 St,40.76019252,-73.9912551,POINT (986672.6038171872 216235.4736766554)
12,504,2013-07-01 00:02:33,1 Ave & E 15 St,40.73221853,-73.98165557,POINT (989334.1005119402 206044.0648005583)
13,474,2013-07-01 00:03:10,5 Ave & E 29 St,40.7451677,-73.98683077,POINT (987899.1010160171 210761.5989806201)
14,477,2013-07-01 00:03:14,W 41 St & 8 Ave,40.75640548,-73.9900262,POINT (987013.2036659697 214855.7677327847)
15,470,2013-07-01 00:03:30,W 20 St & 8 Ave,40.74345335,-74.00004031,POINT (984238.8300950292 210136.7322578508)
16,494,2013-07-01 00:03:58,W 26 St & 8 Ave,40.74734825,-73.99723551,POINT (985015.9956676216 211555.7809533205)
17,345,2013-07-01 00:04:10,W 13 St & 6 Ave,40.73649403,-73.99704374,POINT (985069.2655059164 207601.2452194163)
18,406,2013-07-01 00:05:09,Hicks St & Montague St,40.69512845,-73.99595065,POINT (985372.8891657811 192530.5149064641)
19,521,2013-07-01 00:05:26,8 Ave & W 31 St,40.75044999,-73.99481051,POINT (985687.8571738678 212685.8750825603)
20,422,2013-07-01 00:05:31,W 59 St & 10 Ave,40.770513,-73.988038,POINT (987563.3250933256 219995.6707365663)
21,519,2013-07-01 00:05:37,Pershing Square N,40.75188406,-73.97770164,POINT (990428.0957981421 213209.0968121671)
22,151,2013-07-01 00:05:41,Cleveland Pl & Spring St,40.7218158,-73.99720307,POINT (985025.2812856389 202253.5073570038)
23,312,2013-07-01 00:05:49,Allen St & E Houston St,40.722055,-73.989111,POINT (987268.3120776867 202340.8305046336)
24,487,2013-07-01 00:05:51,E 20 St & FDR Drive,40.73314259,-73.97573881,POINT (990973.8184738184 206381.12757902)
25,352,2013-07-01 00:06:27,W 56 St & 6 Ave,40.76340613,-73.97722479,POINT (990559.122813313 217406.9965901025)
26,483,2013-07-01 00:06:54,E 12 St & 3 Ave,40.73223272,-73.98889957,POINT (987326.448278262 206048.8972365397)
27,285,2013-07-01 00:06:57,Broadway & E 14 St,40.73454567,-73.99074142,POINT (986815.8964419719 206891.5181346339)
28,225,2013-07-01 00:07:08,W 14 St & The High Line,40.74195138,-74.00803013,POINT (982024.8000254343 209589.6187606913)
29,236,2013-07-01 00:07:29,St Marks Pl & 2 Ave,40.7284186,-73.98713956,POINT (987814.4333672463 204659.3610184811)
30,237,2013-07-01 00:08:10,E 11 St & 2 Ave,40.73047309,-73.98672378,POINT (987929.5585997294 205407.8929340814)
31,357,2013-07-01 00:08:43,E 11 St & Broadway,40.73261787,-73.99158043,POINT (986583.4431138705 206189.1366576478)
32,539,2013-07-01 00:09:25,Metropolitan Ave & Bedford Ave,40.71534825,-73.96024116,POINT (995271.8256589978 199899.6697392687)
33,416,2013-07-01 00:09:54,Cumberland St & Lafayette Ave,40.68753406,-73.97265183,POINT (991834.5410330063 189764.8138284652)
34,325,2013-07-01 00:10:15,E 19 St & 3 Ave,40.73624527,-73.98473765,POINT (988479.6562262559 207510.9687613571)
35,265,2013-07-01 00:11:16,Stanton St & Chrystie St,40.72229346,-73.99147535,POINT (986612.9315837636 202427.6362043787)
36,385,2013-07-01 00:11:31,E 55 St & 2 Ave,40.75797322,-73.96603308,POINT (993660.1853558528 215428.6136621693)
37,403,2013-07-01 00:11:40,E 2 St & 2 Ave,40.72502876,-73.99069656,POINT (986828.6970666394 203424.2124117273)
38,482,2013-07-01 00:12:15,W 15 St & 7 Ave,40.73935542,-73.99931783,POINT (984439.0410010844 208643.7269035449)
39,430,2013-07-01 00:12:16,York St & Jay St,40.7014851,-73.98656928,POINT (987973.9981877067 194846.6905768112)
40,161,2013-07-01 00:12:18,LaGuardia Pl & W 3 St,40.72917025,-73.99810231,POINT (984775.962819651 204932.9545570979)
41,510,2013-07-01 00:12:26,W 51 St & 6 Ave,40.7606597,-73.98042047,POINT (989674.0884519314 216406.1679227298)
42,507,2013-07-01 00:12:31,E 25 St & 2 Ave,40.73912601,-73.97973776,POINT (989865.0333321838 208560.7942523491)
43,247,2013-07-01 00:12:36,Perry St & Bleecker St,40.73535398,-74.00483091,POINT (982911.1916267378 207185.9121971795)
44,445,2013-07-01 00:12:39,E 10 St & Avenue A,40.72740794,-73.98142006,POINT (989399.7431074582 204291.4306558817)
45,239,2013-07-01 00:12:39,Willoughby St & Fleet St,40.69196566,-73.9813018,POINT (989435.2771550231 191378.7448588611)
46,476,2013-07-01 00:13:03,E 31 St & 3 Ave,40.74394314,-73.97966069,POINT (989885.9833199035 210315.8326833854)
47,540,2013-07-01 00:13:34,Lexington Ave & E 26 St,40.74147286,-73.98320928,POINT (988902.8484456342 209415.6226528616)
48,449,2013-07-01 00:13:50,W 52 St & 9 Ave,40.76461837,-73.98789473,POINT (987603.3058828303 217848.0670922514)
49,497,2013-07-01 00:14:13,E 17 St & Broadway,40.73704984,-73.99009296,POINT (986995.5056108615 207803.8857593223)
50,362,2013-07-01 00:14:38,Broadway & W 37 St,40.75172632,-73.98753523,POINT (987703.5600862064 213151.086414044)
51,467,2013-07-01 00:14:45,Dean St & 4 Ave,40.68312489,-73.97895137,POINT (990087.858814572 188157.9424681901)
52,329,2013-07-01 00:14:58,Greenwich St & N Moore St,40.72043411,-74.01020609,POINT (981420.914322948 201750.2676346928)
53,306,2013-07-01 00:15:32,Cliff St & Fulton St,40.70823502,-74.00530063,POINT (982780.418476426 197305.6476885172)
54,394,2013-07-01 00:16:30,E 9 St & Avenue C,40.72521311,-73.97768752,POINT (990434.4830567086 203492.0275298475)
55,308,2013-07-01 00:17:00,St James Pl & Oliver St,40.71307916,-73.99851193,POINT (984662.5323331897 199070.4734360869)
56,335,2013-07-01 00:17:14,Washington Pl & Broadway,40.72903917,-73.99404649,POINT (985900.0751248444 204885.2484065857)
57,380,2013-07-01 00:17:41,W 4 St & 7 Ave S,40.73401143,-74.00293877,POINT (983435.55113665 206696.7557848226)
58,334,2013-07-01 00:18:09,W 20 St & 7 Ave,40.74238787,-73.99726235,POINT (985008.6152164366 209748.5558130222)
59,523,2013-07-01 00:18:11,W 38 St & 8 Ave,40.75466591,-73.99138152,POINT (986637.7797302 214221.9459909808)
60,450,2013-07-01 00:18:29,W 49 St & 8 Ave,40.76227205,-73.98788205,POINT (987606.9366521783 216993.2259517359)
61,309,2013-07-01 00:18:32,Murray St & West St,40.7149787,-74.013012,POINT (980642.832511351 199762.7980218695)
62,533,2013-07-01 00:18:44,Broadway & W 39 St,40.75299641,-73.98721619,POINT (987791.8875921143 213613.8340079809)
63,434,2013-07-01 00:18:51,9 Ave & W 18 St,40.74317449,-74.00366443,POINT (983234.5818362941 210035.1559095467)
64,2008,2013-07-01 00:19:12,Little West St & 1 Pl,40.70569254,-74.01677685,POINT (979598.498382073 196379.7467493756)
65,428,2013-07-01 00:19:28,E 3 St & 1 Ave,40.72467721,-73.98783413,POINT (987622.1138345827 203296.2291003084)
66,396,2013-07-01 00:20:07,Lefferts Pl & Franklin Ave,40.680342423,-73.9557689392,POINT (996518.0409065605 187146.6052223516)
67,404,2013-07-01 00:20:42,9 Ave & W 14 St,40.7405826,-74.00550867,POINT (982723.4812282925 209090.8747364874)
68,368,2013-07-01 00:20:44,Carmine St & 6 Ave,40.73038599,-74.00214988,POINT (983654.1511957705 205375.8881607403)
69,248,2013-07-01 00:20:51,Laight St & Hudson St,40.72185379,-74.00771779,POINT (982110.7062972585 202267.4301480992)
70,167,2013-07-01 00:24:26,E 39 St & 3 Ave,40.7489006,-73.97604882,POINT (990886.33161498 212122.247093652)
71,528,2013-07-01 00:25:16,2 Ave & E 31 St,40.74290902,-73.97706058,POINT (990606.5674025594 209939.2478027958)
72,268,2013-07-01 00:25:31,Howard St & Centre St,40.71910537,-73.99973337,POINT (984323.9102001477 201266.0021823442)
73,468,2013-07-01 00:25:51,Broadway & W 55 St,40.7652654,-73.98192338,POINT (989257.3932323507 218084.0864421951)
74,509,2013-07-01 00:26:30,9 Ave & W 22 St,40.7454973,-74.00197139,POINT (983703.7443959529 210881.4146452488)
75,459,2013-07-01 00:26:34,W 20 St & 11 Ave,40.746745,-74.007756,POINT (982100.9178227617 211336.0806922555)
76,317,2013-07-01 00:26:35,E 6 St & Avenue B,40.72453734,-73.98185424,POINT (989279.6194615557 203245.5569101434)
77,387,2013-07-01 00:26:38,Centre St & Chambers St,40.71273266,-74.0046073,POINT (982972.7280313403 198944.2630552264)
78,373,2013-07-01 00:26:39,Willoughby Ave & Walworth St,40.69331716,-73.95381995,POINT (997056.1254717922 191873.9582313271)
79,320,2013-07-01 00:26:58,Church St & Leonard St,40.71743998,-74.00583475,POINT (982632.5589174036 200659.3033802597)
80,489,2013-07-01 00:28:10,10 Ave & W 28 St,40.75066386,-74.00176802,POINT (983760.1345064043 212763.757171906)
81,462,2013-07-01 00:28:45,W 22 St & 10 Ave,40.74691959,-74.00451887,POINT (982997.8858256479 211399.6265795256)
82,375,2013-07-01 00:29:11,Mercer St & Bleecker St,40.72679454,-73.99695094,POINT (985095.1060856187 204067.4185530835)
83,157,2013-07-01 00:29:35,Henry St & Atlantic Ave,40.69089272,-73.99612349,POINT (985325.0287380524 190987.3117053686)
84,402,2013-07-01 00:30:03,Broadway & E 22 St,40.7403432,-73.98955109,POINT (987145.5291465931 209003.7784183958)
85,442,2013-07-01 00:31:43,W 27 St & 7 Ave,40.746647,-73.993915,POINT (985936.0732712524 211300.3395725888)
86,116,2013-07-01 00:31:49,W 17 St & 8 Ave,40.74177603,-74.00149746,POINT (983835.0432398693 209525.6347344065)
87,534,2013-07-01 00:32:00,Water - Whitehall Plaza,40.70255065,-74.0127234,POINT (980722.1801036509 195234.8729487727)
88,393,2013-07-01 00:32:07,E 5 St & Avenue C,40.72299208,-73.97995466,POINT (989806.2715342989 202682.6857655215)
89,128,2013-07-01 00:32:41,MacDougal St & Prince St,40.72710258,-74.00297088,POINT (983426.5668231647 204179.6463416842)
90,294,2013-07-01 00:32:42,Washington Square E,40.73049393,-73.9957214,POINT (985435.8310991561 205415.2357203778)
91,461,2013-07-01 00:34:12,E 20 St & 2 Ave,40.73587678,-73.98205027,POINT (989224.4375521196 207376.8574359287)
92,536,2013-07-01 00:35:25,1 Ave & E 30 St,40.74144387,-73.97536082,POINT (991077.7250432208 209405.5749882631)
93,2004,2013-07-01 00:36:06,6 Ave & Broome St,40.724399,-74.004704,POINT (982946.1483444115 203194.6694371969)
94,305,2013-07-01 00:36:15,E 58 St & 3 Ave,40.76095756,-73.96724467,POINT (993324.1202680655 216515.7784445262)
95,472,2013-07-01 00:37:23,E 32 St & Park Ave,40.7457121,-73.98194829,POINT (989251.9609961446 210960.1824017515)
96,410,2013-07-01 00:38:16,Suffolk St & Stanton St,40.72066442,-73.98517977,POINT (988358.0918775448 201834.3593488553)
97,486,2013-07-01 00:38:32,Broadway & W 29 St,40.7462009,-73.98855723,POINT (987420.6619223225 211137.9595834098)
98,448,2013-07-01 00:38:33,W 37 St & 10 Ave,40.75660359,-73.9979009,POINT (984831.5460081899 214927.7953145942)
99,2003,2013-07-01 00:38:58,1 Ave & E 18 St,40.73416059,-73.98024289,POINT (989725.460695756 206751.7032752856)
100,217,2013-07-01 00:39:23,Old Fulton St,40.70277159,-73.99383605,POINT (985959.0741029029 195315.171914137)
101,518,2013-07-01 00:40:07,E 39 St & 2 Ave,40.74780373,-73.9734419,POINT (991608.7714711542 211722.8303775709)
102,290,2013-07-01 00:40:43,2 Ave & E 58 St,40.76020258,-73.96478473,POINT (994005.701321199 216240.9789008317)
103,319,2013-07-01 00:41:09,Park Pl & Church St,40.71336124,-74.00937622,POINT (981650.6750108086 199173.3793550712)
104,336,2013-07-01 00:42:53,Sullivan St & Washington Sq,40.73047747,-73.99906065,POINT (984510.344673157 205409.2112641017)
105,143,2013-07-01 00:44:46,Clinton St & Joralemon St,40.69239502,-73.99337909,POINT (986086.0608250962 191534.6892925995)
106,499,2013-07-01 00:45:19,Broadway & W 60 St,40.76915505,-73.98191841,POINT (989258.4774490215 219501.215058026)
107,392,2013-07-01 00:45:28,Jay St & Tech Pl,40.695065,-73.987167,POINT (987808.6082535679 192507.6329132898)
108,412,2013-07-01 00:45:42,Forsyth St & Canal St,40.7158155,-73.99422366,POINT (985851.2883739198 200067.4546462818)
109,229,2013-07-01 00:45:44,Great Jones St,40.72743423,-73.99379025,POINT (985971.1360671084 204300.5237780721)
110,524,2013-07-01 00:46:45,W 43 St & 6 Ave,40.75527307,-73.98316936,POINT (988912.9445739421 214443.4845943179)
111,485,2013-07-01 00:47:21,W 37 St & 5 Ave,40.75038009,-73.98338988,POINT (988852.1873308661 212660.8019996501)
112,323,2013-07-01 00:47:37,Lawrence St & Willoughby St,40.69236178,-73.98631746,POINT (988044.3406764012 191522.8059306139)
113,322,2013-07-01 00:48:18,Clinton St & Tillary St,40.696192,-73.991218,POINT (986685.2193158278 192918.0937027418)
114,348,2013-07-01 00:48:36,W Broadway & Spring St,40.72490985,-74.00154702,POINT (983821.2012909845 203380.7566681267)
115,401,2013-07-01 00:48:48,Allen St & Rivington St,40.72019576,-73.98997825,POINT (987027.9973312971 201663.42351038)
116,284,2013-07-01 00:49:01,Greenwich Ave & 8 Ave,40.7390169121,-74.0026376103,POINT (983519.0692572935 208520.4080281724)
117,515,2013-07-01 00:50:06,W 43 St & 10 Ave,40.76009437,-73.99461843,POINT (985740.861101835 216199.6392877945)
118,443,2013-07-01 00:50:26,Bedford Ave & S 9th St,40.70853074,-73.96408963,POINT (994205.9827216815 197415.3836538819)
119,493,2013-07-01 00:51:14,W 45 St & 6 Ave,40.7568001,-73.98291153,POINT (988984.2680838725 214999.8451201725)
120,512,2013-07-01 00:52:20,W 29 St & 9 Ave,40.7500727,-73.99839279,POINT (984695.3138011338 212548.3776702018)
121,469,2013-07-01 00:53:23,Broadway & W 53 St,40.76344058,-73.98268129,POINT (989047.5765036116 217419.2019365923)
122,400,2013-07-01 00:54:46,Pitt St & Stanton St,40.71926081,-73.98178024,POINT (989300.5305398422 201323.1588688613)
123,147,2013-07-01 00:56:34,Greenwich St & Warren St,40.71542197,-74.01121978,POINT (981139.6897840949 199924.2260653745)
124,423,2013-07-01 00:57:55,W 54 St & 9 Ave,40.76584941,-73.98690506,POINT (987877.3893670334 218296.6150470275)
125,168,2013-07-01 00:58:34,W 18 St & 6 Ave,40.73971301,-73.99456405,POINT (985756.3868449085 208774.0542709183)
126,405,2013-07-01 00:59:31,Washington St & Gansevoort St,40.739323,-74.008119,POINT (982000.0848287026 208632.0188022743)
127,478,2013-07-01 01:00:53,11 Ave & W 41 St,40.76030096,-73.99884222,POINT (984570.7398238522 216274.8631151329)
128,458,2013-07-01 01:04:27,11 Ave & W 27 St,40.751396,-74.005226,POINT (982802.0475263394 213030.5376473515)
129,79,2013-07-01 01:04:37,Franklin St & W Broadway,40.71911552,-74.00666661,POINT (982402.0068864139 201269.770346975)
130,439,2013-07-01 01:04:42,E 4 St & 2 Ave,40.7262807,-73.98978041,POINT (987082.5793121061 203880.361226792)
131,324,2013-07-01 01:05:02,DeKalb Ave & Hudson Ave,40.689888,-73.981013,POINT (989515.5295788341 190621.8096496767)
132,426,2013-07-01 01:08:03,West St & Chambers St,40.71754834,-74.01322069,POINT (980585.1210736979 200699.0049358674)
133,546,2013-07-01 01:09:01,E 30 St & Park Ave S,40.74444921,-73.98303529,POINT (988950.8525154041 210500.0110220885)
134,453,2013-07-01 01:09:15,W 22 St & 8 Ave,40.74475148,-73.99915362,POINT (984484.5274116269 210609.6835683184)
135,366,2013-07-01 01:09:39,Clinton Ave & Myrtle Ave,40.693261,-73.968896,POINT (992875.414486603 191851.6532392275)
136,480,2013-07-01 01:11:48,W 53 St & 10 Ave,40.76669671,-73.99061728,POINT (986849.0455728493 218605.1825303701)
137,389,2013-07-01 01:12:52,Broadway & Berry St,40.71044554,-73.96525063,POINT (993883.8241576742 198112.873220421)
138,223,2013-07-01 01:14:57,W 13 St & 7 Ave,40.73781509,-73.99994661,POINT (984264.7956262812 208082.5352398808)
139,72,2013-07-01 01:15:03,W 52 St & 11 Ave,40.76727216,-73.99392888,POINT (985931.7065028953 218814.7571059955)
140,307,2013-07-01 01:15:35,Canal St & Rutgers St,40.71427487,-73.98990025,POINT (987049.867399437 199506.2648303307)
141,160,2013-07-01 01:15:36,E 37 St & Lexington Ave,40.748238,-73.978311,POINT (990259.5923595787 211880.6773367638)
142,508,2013-07-01 01:16:26,W 46 St & 11 Ave,40.76341379,-73.99667444,POINT (985171.236918622 217408.984683867)
143,233,2013-07-01 01:16:32,Joralemon St & Adams St,40.69246277,-73.98963911,POINT (987123.200947615 191559.473139965)
144,377,2013-07-01 01:17:29,6 Ave & Canal St,40.72243797,-74.00566443,POINT (982679.8907825906 202480.2214391762)
145,465,2013-07-01 01:19:31,Broadway & W 41 St,40.75513557,-73.98658032,POINT (987967.9425944424 214393.2257057101)
146,457,2013-07-01 01:26:09,Broadway & W 58 St,40.76695317,-73.98169333,POINT (989320.9907302569 218699.0100903474)
147,444,2013-07-01 01:34:19,Broadway & W 24 St,40.7423543,-73.98915076,POINT (987256.3750581887 209736.4995147894)
148,427,2013-07-01 01:35:31,State St,40.70251526,-74.01427023,POINT (980293.2881148981 195222.0453978147)
149,316,2013-07-01 01:38:19,Fulton St & William St,40.70955958,-74.00653609,POINT (982437.9274285666 197788.2479854546)
150,379,2013-07-01 01:38:22,W 31 St & 7 Ave,40.749156,-73.9916,POINT (986577.4415899487 212214.5018555064)
151,435,2013-07-01 01:38:58,W 21 St & 6 Ave,40.74173969,-73.99415556,POINT (985869.5365540914 209512.4453977407)
152,257,2013-07-01 01:40:50,Lispenard St & Broadway,40.71939226,-74.00247214,POINT (983564.7223656198 201370.5345625729)
153,152,2013-07-01 01:45:22,Warren St & Church St,40.71473993,-74.00910627,POINT (981725.5641854076 199675.6701459323)
154,411,2013-07-01 01:48:41,E 6 St & Avenue D,40.72228087,-73.97668709,POINT (990712.0625118414 202423.7942021184)
155,532,2013-07-01 01:48:41,S 5 Pl & S 4 St,40.710451,-73.960876,POINT (995096.6341353969 198115.373863208)
156,295,2013-07-01 01:54:00,Pike St & E Broadway,40.71406667,-73.99293911,POINT (986207.436322395 199430.3287202943)
157,350,2013-07-01 01:54:56,Clinton St & Grand St,40.71559509,-73.9870295,POINT (987845.62966784 199987.3659695483)
158,384,2013-07-01 01:54:59,Fulton St & Waverly Ave,40.68317813,-73.9659641,POINT (993689.8835982786 188178.4718896787)
159,417,2013-07-01 01:56:46,Barclay St & Church St,40.71291224,-74.01020234,POINT (981421.6346309046 199009.8206171832)
160,466,2013-07-01 01:57:00,W 25 St & 6 Ave,40.74395411,-73.99144871,POINT (986619.5454872646 210319.2907494989)
161,301,2013-07-01 01:58:16,E 2 St & Avenue B,40.72217444,-73.98368779,POINT (988771.5586427487 202384.5795743875)
162,446,2013-07-01 01:58:29,W 24 St & 7 Ave,40.74487634,-73.99529885,POINT (985552.6613038135 210655.2078774171)
163,195,2013-07-01 02:01:18,Liberty St & Broadway,40.70905623,-74.01043382,POINT (981357.2947618701 197604.967062631)
164,318,2013-07-01 02:02:44,E 43 St & Vanderbilt Ave,40.75320159,-73.9779874,POINT (990348.8010711253 213689.0955702332)
165,460,2013-07-01 02:09:15,S 4 St & Wythe Ave,40.71285887,-73.96590294,POINT (993702.6372080046 198992.0513090801)
166,264,2013-07-01 02:12:09,Maiden Ln & Pearl St,40.70706456,-74.00731853,POINT (982220.926982283 196879.254178445)
167,2002,2013-07-01 02:17:06,Wythe Ave & Metropolitan Ave,40.716887,-73.963198,POINT (994451.9039170092 200459.9250504132)
168,351,2013-07-01 02:21:46,Front St & Maiden Ln,40.70530954,-74.00612572,POINT (982551.5905637655 196239.8223116054)
169,500,2013-07-01 02:26:53,Broadway & W 51 St,40.76228826,-73.98336183,POINT (988859.1351216279 216999.337321274)
170,440,2013-07-01 02:29:38,E 45 St & 3 Ave,40.75255434,-73.97282625,POINT (991778.8200834417 213453.6829194578)
171,242,2013-07-01 02:39:16,Flushing Ave & Carlton Ave,40.69788349,-73.97350332,POINT (991597.2545011148 193535.3427194358)
172,297,2013-07-01 02:39:31,E 15 St & 3 Ave,40.734232,-73.986923,POINT (987874.1395185783 206777.3732153735)
173,414,2013-07-01 02:41:37,Pearl St & Anchorage Pl,40.70281858,-73.98765762,POINT (987672.1606446027 195332.4727334297)
174,369,2013-07-01 02:42:52,Washington Pl & 6 Ave,40.73224119,-74.00026394,POINT (984176.8498916264 206051.7883072067)
175,498,2013-07-01 02:42:55,Broadway & W 32 St,40.74854862,-73.98808416,POINT (987551.6279056156 211993.3267582271)
176,254,2013-07-01 02:42:57,W 11 St & 6 Ave,40.73532427,-73.99800419,POINT (984803.1066262835 207175.0572934168)
177,505,2013-07-01 02:50:17,6 Ave & W 33 St,40.74901271,-73.98848395,POINT (987440.8323019856 212162.3948489819)
178,365,2013-07-01 03:11:46,Fulton St & Grand Ave,40.68223166,-73.9614583,POINT (994939.7224107641 187834.1632106446)
179,327,2013-07-01 03:16:50,Vesey Pl & River Terrace,40.7153379,-74.01658354,POINT (979652.7602350658 199893.8327776601)
180,296,2013-07-01 03:34:36,Division St & Bowery,40.71413089,-73.9970468,POINT (985068.692173767 199453.6609287503)
181,447,2013-07-01 03:38:35,8 Ave & W 52 St,40.76370739,-73.9851615,POINT (988360.4997944059 217516.2834944624)
182,326,2013-07-01 03:44:39,E 11 St & 1 Ave,40.72953837,-73.98426726,POINT (988610.4543080765 205067.4580218445)
183,349,2013-07-01 03:47:10,Rivington St & Ridge St,40.71850211,-73.98329859,POINT (988879.6955383357 201046.6573214804)
184,253,2013-07-01 03:53:24,W 13 St & 5 Ave,40.73543934,-73.99453948,POINT (985763.292636796 207217.0217806236)
185,280,2013-07-01 04:06:32,E 10 St & 5 Ave,40.73331967,-73.99510132,POINT (985607.631177748 206444.7502119451)
186,496,2013-07-01 04:08:16,E 16 St & 5 Ave,40.73726186,-73.99238967,POINT (986359.0191669463 207881.067694314)
187,492,2013-07-01 04:14:31,W 33 St & 7 Ave,40.75019995,-73.99093085,POINT (986762.8078708441 212594.8649386521)
188,438,2013-07-01 04:19:28,St Marks Pl & 1 Ave,40.72779126,-73.98564945,POINT (988227.4736132087 204430.8656985319)
189,490,2013-07-01 04:22:58,8 Ave & W 33 St,40.751551,-73.993934,POINT (985930.684896044 213087.0241532385)
190,127,2013-07-01 05:03:16,Barrow St & Hudson St,40.73172428,-74.00674436,POINT (982380.808170354 205863.5336667247)
191,398,2013-07-01 05:05:58,Atlantic Ave & Furman St,40.69165183,-73.9999786,POINT (984255.9345527551 191263.853960906)
192,311,2013-07-01 05:08:39,Norfolk St & Broome St,40.7172274,-73.98802084,POINT (987570.7330684606 200582.0271802489)
193,464,2013-07-01 05:10:00,E 56 St & 3 Ave,40.75934501,-73.96759673,POINT (993226.8073702812 215928.2374335715)
194,360,2013-07-01 05:11:46,William St & Pine St,40.70717936,-74.00887308,POINT (981789.9299864497 196921.1191043023)
195,355,2013-07-01 05:17:52,Bayard St & Baxter St,40.71602118,-73.99974372,POINT (984321.0444534752 200142.3374507732)
196,281,2013-07-01 05:22:42,Grand Army Plaza & Central Park S,40.7643971,-73.97371465,POINT (991531.3832799405 217768.3118964719)
197,332,2013-07-01 05:30:37,Cherry St,40.71219906,-73.97948148,POINT (989938.3510973 198750.4890123221)
198,376,2013-07-01 05:31:56,John St & William St,40.70862144,-74.00722156,POINT (982247.8588166045 197446.4702056427)
199,454,2013-07-01 05:37:02,E 51 St & 1 Ave,40.75455731,-73.96592976,POINT (993689.2931451583 214184.0976909265)
200,529,2013-07-01 05:37:56,W 42 St & 8 Ave,40.7575699,-73.99098507,POINT (986747.5086910017 215279.9750832905)
201,261,2013-07-01 05:38:38,Johnson St & Gold St,40.69474881,-73.98362464,POINT (988790.9309964622 192392.5993387984)
202,415,2013-07-01 05:38:44,Pearl St & Hanover Square,40.7047177,-74.00926027,POINT (981682.4863743173 196024.2735852217)
203,527,2013-07-01 05:39:16,E 33 St & 1 Ave,40.74315566,-73.97434726,POINT (991358.4084406492 210029.315146072)
204,475,2013-07-01 05:43:12,E 16 St & Irving Pl,40.73524276,-73.98758561,POINT (987690.4526220005 207145.5981280066)
205,520,2013-07-01 05:48:01,W 52 St & 5 Ave,40.75992262,-73.97648516,POINT (990764.3536682081 216137.8937087742)
206,276,2013-07-01 05:49:16,Duane St & Greenwich St,40.71748752,-74.0104554,POINT (981351.6784943469 200676.7427561567)
207,517,2013-07-01 05:49:19,Pershing Square S,40.75149263,-73.97798848,POINT (990348.658301754 213066.4661230507)
208,330,2013-07-01 05:52:18,Reade St & Broadway,40.71450451,-74.00562789,POINT (982689.8335132997 199589.8183780189)
209,2009,2013-07-01 05:54:00,Catherine St & Monroe St,40.71117444,-73.99682619,POINT (985129.8891575789 198376.5386361047)
210,391,2013-07-01 05:55:09,Clark St & Henry St,40.69760127,-73.99344559,POINT (986067.4776204841 193431.4783958807)
211,516,2013-07-01 05:55:40,E 47 St & 1 Ave,40.75206862,-73.96784384,POINT (993159.3226703504 213277.1869169049)
212,471,2013-07-01 05:56:19,Grand St & Havemeyer St,40.71286844,-73.95698119,POINT (996175.9883283101 198996.6266532988)
213,545,2013-07-01 05:58:36,E 23 St & 1 Ave,40.736502,-73.97809472,POINT (990320.5885040887 207604.8941477117)
214,271,2013-07-01 05:58:42,Ashland Pl & Hanson Pl,40.68528172,-73.97805813,POINT (990335.4029959891 188943.7989847905)
215,279,2013-07-01 05:59:31,Sands St & Gold St,40.69986937,-73.98271933,POINT (989041.6078414208 194258.2191779432)
216,436,2013-07-01 06:00:16,Hancock St & Bedford Ave,40.68216564,-73.95399026,POINT (997011.0310123326 187811.1098565215)
217,488,2013-07-01 06:01:20,W 39 St & 9 Ave,40.75645824,-73.99372222,POINT (985989.2338921009 214874.8949317572)
218,120,2013-07-01 06:01:48,Lexington Ave & Classon Ave,40.68676793,-73.95928168,POINT (995542.6499674912 189487.1309914727)
219,238,2013-07-01 06:01:53,Bank St & Washington St,40.7361967,-74.00859207,POINT (981868.8772378928 207493.0214843047)
220,433,2013-07-01 06:02:10,E 13 St & Avenue A,40.72955361,-73.98057249,POINT (989634.4880206474 205073.2159450651)
221,216,2013-07-01 06:02:11,Columbia Heights & Cranberry St,40.70037867,-73.99548059,POINT (985503.1386279119 194443.3320134935)
222,304,2013-07-01 06:02:35,Broadway & Battery Pl,40.70463334,-74.01361706,POINT (980474.5127561709 195993.6964498408)
223,356,2013-07-01 06:04:16,Bialystoker Pl & Delancey St,40.71622644,-73.98261206,POINT (989070.1688854336 200217.5982254949)
224,249,2013-07-01 06:05:23,Harrison St & Hudson St,40.71870987,-74.0090009,POINT (981754.9234255657 201122.0374892612)
225,263,2013-07-01 06:06:01,Elizabeth St & Hester St,40.71729,-73.996375,POINT (985254.8823207242 200604.6280061223)
226,347,2013-07-01 06:06:07,W Houston St & Hudson St,40.72873888,-74.00748842,POINT (982174.4997921858 204775.8760506014)
227,153,2013-07-01 06:06:37,E 40 St & 5 Ave,40.752062307,-73.9816324043,POINT (989339.0048673135 213273.7851579103)
228,241,2013-07-01 06:10:15,DeKalb Ave & S Portland Ave,40.68981035,-73.97493121,POINT (991202.157170904 190593.9436137235)
229,291,2013-07-01 06:11:56,Madison St & Montgomery St,40.713126,-73.984844,POINT (988451.6407946182 199087.8986484254)
230,525,2013-07-01 06:13:26,W 34 St & 11 Ave,40.75594159,-74.0021163,POINT (983663.6829838887 214686.6072847555)
231,310,2013-07-01 06:14:43,State St & Smith St,40.68926942,-73.98912867,POINT (987264.8965624596 190396.0592795663)
232,495,2013-07-01 06:18:12,W 47 St & 10 Ave,40.76269882,-73.99301222,POINT (986185.7551851094 217148.5573079131)
233,346,2013-07-01 06:22:21,Bank St & Hudson St,40.73652889,-74.00618026,POINT (982537.2713552533 207613.9924109633)
234,342,2013-07-01 06:22:41,Columbia St & Rivington St,40.71739973,-73.98016555,POINT (989748.2772876442 200645.2076883461)
235,361,2013-07-01 06:23:45,Allen St & Hester St,40.71605866,-73.99190759,POINT (986493.3296458209 200156.0960757857)
236,363,2013-07-01 06:23:46,West Thames St,40.70834698,-74.01713445,POINT (979499.5403944824 197346.8582333809)
237,456,2013-07-01 06:23:58,E 53 St & Madison Ave,40.7597108,-73.97402311,POINT (991446.442177069 216060.9134334443)
238,82,2013-07-01 06:25:01,St James Pl & Pearl St,40.71117416,-74.00016545,POINT (984204.1315763213 198376.4207269395)
239,513,2013-07-01 06:26:51,W 56 St & 10 Ave,40.768254,-73.988639,POINT (987396.962319165 219172.6197732439)
240,522,2013-07-01 06:27:19,E 51 St & Lexington Ave,40.75714758,-73.97207836,POINT (991985.4987384058 215127.2144712667)
241,386,2013-07-01 06:29:39,Centre St & Worth St,40.71494807,-74.00234482,POINT (983599.9721497269 199751.3793695304)
242,367,2013-07-01 06:29:40,E 53 St & Lexington Ave,40.75828065,-73.97069431,POINT (992368.8021711177 215540.1540625042)
243,437,2013-07-01 06:34:38,Macon St & Nostrand Ave,40.6809833854,-73.9500479759,POINT (998104.6886906285 187380.9793226853)
244,395,2013-07-01 06:38:23,Bond St & Schermerhorn St,40.68807003,-73.98410637,POINT (988657.787477499 189959.2992513243)
245,212,2013-07-01 06:38:34,W 16 St & The High Line,40.74334935,-74.00681753,POINT (982360.8588185158 210098.9152547643)
246,228,2013-07-01 06:39:49,E 48 St & 3 Ave,40.7546011026,-73.971878855,POINT (992041.0680657706 214199.4676623823)
247,270,2013-07-01 06:39:51,Adelphi St & Myrtle Ave,40.69308257,-73.97178913,POINT (992073.1448967876 191786.3743154892)
248,340,2013-07-01 06:42:23,Madison St & Clinton St,40.71269042,-73.98776323,POINT (987642.3758316211 198929.0770981552)
249,503,2013-07-01 06:42:27,E 20 St & Park Ave,40.73827428,-73.98751968,POINT (987708.5667234195 208250.0790394116)
250,420,2013-07-01 06:43:19,Clermont Ave & Lafayette Ave,40.68764484,-73.96968902,POINT (992656.2110470027 189805.4446398867)
251,314,2013-07-01 06:44:30,Montague St & Clinton St,40.69424674,-73.99215922,POINT (986424.2855858782 192209.3533053575)
252,364,2013-07-01 06:44:59,Lafayette Ave & Classon Ave,40.68900443,-73.96023854,POINT (995276.9085448204 190301.8312163522)
253,315,2013-07-01 06:45:18,South St & Gouverneur Ln,40.70355377,-74.00670227,POINT (982391.6880915408 195600.154426356)
254,298,2013-07-01 06:45:23,3 Ave & Schermerhorn St,40.68683208,-73.9796772,POINT (989886.2357822801 189508.5319029504)
255,266,2013-07-01 06:45:48,Avenue D & E 8 St,40.72368361,-73.97574813,POINT (990972.1896046633 202934.926290902)
256,537,2013-07-01 06:46:31,Lexington Ave & E 24 St,40.74025878,-73.98409214,POINT (988658.2809124219 208973.249117698)
257,259,2013-07-01 06:46:36,South St & Whitehall St,40.70122128,-74.01234218,POINT (980827.8128150987 194750.5286877689)
258,2021,2013-07-01 06:47:17,W 45 St & 8 Ave,40.75929124,-73.98859651,POINT (987409.1570159864 215907.1925803857)
259,2023,2013-07-01 06:47:36,E 55 St & Lexington Ave,40.75968085,-73.97031366,POINT (992474.0839593185 216050.3281727099)
260,354,2013-07-01 06:49:00,Emerson Pl & Myrtle Ave,40.69363137,-73.96223558,POINT (994722.3496233157 191987.3159672247)
261,481,2013-07-01 06:50:35,S 3 St & Bedford Ave,40.71260486,-73.96264403,POINT (994606.135567963 198899.8762425754)
262,339,2013-07-01 06:53:38,Avenue D & E 12 St,40.72580614,-73.97422494,POINT (991394.1633909534 203708.3501455986)
263,303,2013-07-01 06:54:53,Mercer St & Spring St,40.72362738,-73.99949601,POINT (984389.6972373951 202913.5098263963)
264,262,2013-07-01 06:55:50,Washington Park,40.69178232,-73.97372989,POINT (991535.0956133024 191312.487685475)
265,328,2013-07-01 06:57:30,Watts St & Greenwich St,40.72405549,-74.00965965,POINT (981572.5307090305 203069.6307466166)
266,250,2013-07-01 06:58:32,Lafayette St & Jersey St,40.72456089,-73.99565293,POINT (985454.9151037995 203253.6458580037)
267,2006,2013-07-01 07:01:55,Central Park S & 6 Ave,40.76590936,-73.97634151,POINT (990803.5601609646 218319.0706854312)
268,501,2013-07-01 07:02:08,FDR Drive & E 35 St,40.744219,-73.97121214,POINT (992227.0270235913 210416.9937511024)
269,390,2013-07-01 07:06:19,Duffield St & Willoughby St,40.69221589,-73.9842844,POINT (988608.1433514149 191469.7485240509)
270,383,2013-07-01 07:07:25,Greenwich Ave & Charles St,40.735238,-74.000271,POINT (984174.8966135039 207143.6202338118)
271,313,2013-07-01 07:07:36,Washington Ave & Park Ave,40.69610226,-73.96751037,POINT (993259.2779951543 192886.9474586447)
272,408,2013-07-01 07:08:18,Market St & Cherry St,40.71076228,-73.99400398,POINT (985912.312994778 198226.4172293035)
273,514,2013-07-01 07:11:17,12 Ave & W 40 St,40.76087502,-74.00277668,POINT (983480.7828963356 216484.0220593341)
274,243,2013-07-01 07:12:04,Fulton St & Rockwell Pl,40.687979,-73.978474,POINT (990219.8232774737 189926.4679985101)
275,258,2013-07-01 07:12:06,DeKalb Ave & Vanderbilt Ave,40.68940747,-73.96885458,POINT (992887.3997981583 190447.7033738132)
276,484,2013-07-01 07:15:43,W 44 St & 5 Ave,40.75500254,-73.98014437,POINT (989751.0432142987 214345.0972255957)
277,441,2013-07-01 07:15:47,E 52 St & 2 Ave,40.756014,-73.967416,POINT (993277.3271495601 214714.6604917161)
278,144,2013-07-01 07:16:39,Nassau St & Navy St,40.69839895,-73.98068914,POINT (989604.6597953544 193722.6190909594)
279,341,2013-07-01 07:17:03,Stanton St & Mangin St,40.71782143,-73.97628939,POINT (990822.7400113097 200799.1129590659)
280,473,2013-07-01 07:19:42,Rivington St & Chrystie St,40.72110063,-73.9919254,POINT (986488.2231366896 201993.0397030122)
281,174,2013-07-01 07:20:09,E 25 St & 1 Ave,40.7381765,-73.97738662,POINT (990516.6660584909 208215.0171926103)
282,83,2013-07-01 07:23:01,Atlantic Ave & Fort Greene Pl,40.68382604,-73.97632328,POINT (990816.6931712274 188413.5778061243)
283,2012,2013-07-01 07:26:43,E 27 St & 1 Ave,40.739445,-73.976806,POINT (990677.4462858785 208677.2139279789)
284,267,2013-07-01 07:29:27,Broadway & W 36 St,40.75097711,-73.98765428,POINT (987670.6138866208 212878.1203540673)
285,244,2013-07-01 07:32:43,Willoughby Ave & Hall St,40.69196035,-73.96536851,POINT (993853.8059774861 191378.1552825687)
286,2022,2013-07-01 07:34:22,E 59 St & Sutton Pl,40.75849116,-73.95920622,POINT (995551.4086045731 215618.1231726624)
287,282,2013-07-01 07:37:02,Kent Ave & S 11 St,40.70827295,-73.96834101,POINT (993027.341429443 197321.0084003923)
288,2000,2013-07-01 07:37:21,Front St & Washington St,40.70255088,-73.98940236,POINT (987188.4099499857 195234.878285239)
289,218,2013-07-01 07:38:37,Gallatin Pl & Livingston St,40.69028437,-73.98707105,POINT (987835.472388618 190765.9127857498)
290,353,2013-07-01 07:41:46,S Portland Ave & Hanson Pl,40.68539567,-73.97431458,POINT (991373.6345905467 188985.5965306419)
291,300,2013-07-01 07:42:02,Shevchenko Pl & E 6 St,40.728145,-73.990214,POINT (986962.3246325826 204559.5698797488)
292,455,2013-07-01 07:43:49,1 Ave & E 44 St,40.75001986,-73.96905301,POINT (992824.5685974904 212530.6369137632)
293,275,2013-07-01 07:44:49,Washington Ave & Greene Ave,40.68650065,-73.96563307,POINT (993781.2201136181 189388.9981764726)
294,150,2013-07-01 07:47:37,E 2 St & Avenue C,40.7208736,-73.98085795,POINT (989556.0615834092 201910.8022853028)
295,421,2013-07-01 07:55:20,Clermont Ave & Park Ave,40.69573398,-73.97129668,POINT (992209.3894727511 192752.4054528122)
296,399,2013-07-01 07:56:58,Lafayette Ave & St James Pl,40.68851534,-73.9647628,POINT (994022.2828767656 190123.1043311441)
297,137,2013-07-01 07:59:14,E 56 St & Madison Ave,40.761628,-73.972924,POINT (991750.7154296248 216759.5044095736)
298,358,2013-07-01 08:01:17,Christopher St & Greenwich St,40.73291553,-74.00711384,POINT (982278.4424481476 206297.5514356545)
299,526,2013-07-01 08:03:24,E 33 St & 5 Ave,40.74765947,-73.98490707,POINT (988431.9883333845 211669.5165741309)
300,331,2013-07-01 08:05:38,Pike St & Monroe St,40.71173107,-73.99193043,POINT (986487.1433223482 198579.4229051085)
301,359,2013-07-01 08:11:25,E 47 St & Park Ave,40.75510267,-73.97498696,POINT (991179.9038325883 214381.943780388)
302,431,2013-07-01 08:13:00,Hanover Pl & Livingston St,40.68864636,-73.98263429,POINT (989065.9984473148 190169.3506001739)
303,302,2013-07-01 08:16:43,Avenue D & E 3 St,40.72082834,-73.97793172,POINT (990367.1991470763 201894.5034764804)
304,397,2013-07-01 08:19:06,Fulton St & Clermont Ave,40.68415748,-73.96922273,POINT (992785.9746838909 188534.9431099645)
305,3002,2013-07-01 08:19:44,South End Ave & Liberty St,40.711512,-74.015756,POINT (979881.9176990169 198499.8988648863)
306,274,2013-07-01 08:21:32,Lafayette Ave & Fort Greene Pl,40.68691865,-73.976682,POINT (990716.9029352155 189540.2787956973)
307,343,2013-07-01 08:21:53,Clinton Ave & Flushing Ave,40.69794,-73.96986848,POINT (992605.1508078965 193556.2567714505)
308,278,2013-07-01 08:23:51,Concord St & Bridge St,40.69766564,-73.98476437,POINT (988474.6960001091 193455.2296951767)
309,538,2013-07-01 08:26:43,W 49 St & 5 Ave,40.75795248,-73.97787642,POINT (990379.1119819436 215420.006929954)
310,463,2013-07-01 08:27:54,9 Ave & W 16 St,40.74206539,-74.00443172,POINT (983021.9443687876 209631.0853009445)
311,232,2013-07-01 08:31:20,Cadman Plaza E & Tillary St,40.69597683,-73.99014892,POINT (986981.6804496894 192839.7324421)
312,344,2013-07-01 08:37:31,Monroe St & Bedford Ave,40.6851443,-73.95380904,POINT (997060.7210350954 188896.3483470072)
313,289,2013-07-01 08:44:23,Monroe St & Classon Ave,40.6845683,-73.95881081,POINT (995673.6159126048 188685.8029577212)
314,419,2013-07-01 08:50:55,Carlton Ave & Park Ave,40.69580705,-73.97355569,POINT (991582.961222571 192778.8298270062)
315,337,2013-07-01 08:57:48,Old Slip & Front St,40.7037992,-74.00838676,POINT (981924.6447704459 195689.6121421243)
316,409,2013-07-01 09:14:02,DeKalb Ave & Skillman St,40.6906495,-73.95643107,POINT (996332.5228807678 190901.6805331504)
317,245,2013-07-01 09:14:16,Myrtle Ave & St Edwards St,40.69327018,-73.97703874,POINT (990617.3598013171 191854.3009446064)
318,260,2013-07-01 09:21:12,Broad St & Bridge St,40.70365182,-74.01167797,POINT (981012.1001905215 195636.021711254)
319,418,2013-07-01 09:40:32,Front St & Gold St,40.70224,-73.982578,POINT (989080.6242394117 195121.9180500168)
320,252,2013-07-01 13:56:42,MacDougal St & Washington Sq,40.73226398,-73.99852205,POINT (984659.6088720689 206060.0947629111)
321,407,2013-07-01 14:27:51,Henry St & Poplar St,40.700469,-73.991454,POINT (986619.6252810502 194476.3251845095)
322,321,2013-07-01 14:46:02,Cadman Plaza E & Red Cross Pl,40.69991755,-73.98971773,POINT (987101.0798574506 194275.467285947)
323,2005,2013-07-01 16:09:39,Railroad Ave & Kay Ave,40.70531194,-73.97100056,POINT (992290.3478952458 196241.9682141498)
324,2001,2013-07-01 16:29:08,7 Ave & Farragut St,40.69892054,-73.97332996,POINT (991645.2103949469 193913.1853688806)
325,372,2013-07-01 19:24:19,Franklin Ave & Myrtle Ave,40.694528,-73.958089,POINT (995872.0701793276 192314.5076017349)
326,119,2013-07-02 07:07:40,Park Ave & St Edwards St,40.69608941,-73.97803415,POINT (990341.0662772978 192881.3587593974)
327,2017,2013-07-07 18:31:35,E 43 St & 2 Ave,40.75022392,-73.97121414,POINT (992225.7538884589 212604.7783841793)
328,2010,2013-07-14 14:11:35,Grand St & Greene St,40.72165481,-74.00234737,POINT (983599.3307205922 202194.8500854711)
329,502,2013-08-28 18:15:46,Henry St & Grand St,40.714215,-73.981346,POINT (989421.2936561276 199484.8415778317)
330,491,2014-03-01 00:46:32,E 24 St & Park Ave S,40.74096374,-73.98602213,POINT (988123.4138740347 209229.9971760014)
331,530,2014-05-05 15:17:06,11 Ave & W 59 St,40.771522,-73.990541,POINT (986869.9855586613 220363.1983025315)
332,255,3/29/2015 11:04,NYCBS Depot - SSP,40.646768,-74.01651,POINT (979668.4382618705 174911.8334632019)
333,3180,7/30/2015 20:36:19,Brooklyn Bridge Park - Pier 2,40.69878,-73.99712,POINT (985048.5833977 193860.8698218935)
334,3016,8/1/2015 07:45:18,Mobile 01,40.7710518564,-73.9643383026,POINT (994127.7660846394 220193.7785199138)
335,3014,8/1/2015 09:16:47,E.T. Bike-In Movie Valet Station ,40.722852,-73.959114,POINT (995583.0175083855 202633.6594084637)
336,3181,8/4/2015 13:49:54,Soissons Landing,40.692609,-74.016398,POINT (979702.6449327035 191613.0047350755)
337,3120,8/5/2015 09:44:35,Center BlvdÂ & Borden Ave,40.74161,-73.96044,POINT (995212.3828224244 209467.6165558107)
338,3182,8/7/2015 16:40:05,Yankee Ferry Terminal,40.686931,-74.016966,POINT (979544.731302522 189544.3731926289)
339,3130,8/11/2015 21:36:46,21 St & Queens Plaza North,40.75325964,-73.94335788,POINT (999943.2257276351 213714.5525479976)
340,3125,8/11/2015 21:43:16,45 Rd & 11 St,40.74708586,-73.94977234,POINT (998167.329918901 211464.1618261116)
341,3126,8/12/2015 09:09:59,44 Dr & Jackson Ave,40.74718234,-73.9432635,POINT (999970.8086832465 211500.4136959683)
342,3129,8/12/2015 18:14:02,Queens Plaza North & Crescent St,40.75110165,-73.94073717,POINT (1000669.849590534 212928.8075727214)
343,3117,8/12/2015 19:41:36,Franklin St & Dupont St,40.73564,-73.95866,POINT (995706.6610739308 207292.7847533438)
344,3124,8/12/2015 20:45:17,46 Ave & 5 St,40.74731,-73.95451,POINT (996854.5532325979 211545.1059912459)
345,3121,8/13/2015 08:24:00,Jackson Ave & 46 Rd,40.74524768,-73.94733276,POINT (998843.7034600722 210794.8511338449)
346,3113,8/13/2015 14:12:21,Greenpoint Ave & Manhattan Ave,40.73026,-73.95394,POINT (997015.7574146012 205333.3349780159)
347,3108,8/13/2015 16:22:49,Nassau Ave & Russell St,40.72557,-73.94434,POINT (999677.5304245215 203626.1673510952)
348,3119,8/13/2015 16:24:46,Vernon Blvd & 50 Ave,40.74232744,-73.95411749,POINT (996964.2623194904 209729.8571855285)
349,3112,8/13/2015 18:16:08,Milton St & Franklin St,40.72906,-73.95779,POINT (995948.921578472 204895.5999988129)
350,3127,8/13/2015 23:42:28,9 St & 44 Rd,40.74966,-73.9521,POINT (997521.8575401031 212401.6423477891)
351,3115,8/14/2015 09:29:58,India St & Manhattan Ave,40.73232194,-73.9550858,POINT (996697.8081089101 206084.3991658826)
352,3109,8/14/2015 14:58:33,Banker St & Meserole Ave,40.72606,-73.95621,POINT (996387.380656069 203802.8218910096)
353,3110,8/14/2015 16:56:37,Meserole Ave & Manhattan Ave,40.72708584,-73.95299117,POINT (997279.3509328024 204177.0295605607)
354,3111,8/14/2015 16:58:08,Norman Ave & Leonard St,40.7258483,-73.95064893,POINT (997928.7992340068 203726.5124955446)
355,3118,8/14/2015 16:59:04,McGuinness Blvd & Eagle St,40.73555,-73.95284,POINT (997319.5902269882 207260.8096926071)
356,3107,8/17/2015 10:07:45,Bedford Ave & Nassau Ave,40.72311651,-73.95212324,POINT (997520.7038717691 202731.0103062205)
357,3102,8/17/2015 16:21:24,Driggs Ave & Lorimer St,40.72179134,-73.9504154,POINT (997994.3641772375 202248.4734623785)
358,3098,8/17/2015 16:25:30,Leonard St & Bayard St,40.71928,-73.94861,POINT (998495.3400426033 201333.8037351274)
359,3103,8/17/2015 17:10:17,N 11 St & Wythe Ave,40.72153267,-73.95782357,POINT (995940.9377528647 202153.1564907328)
360,3101,8/17/2015 17:35:02,N 12 St & Bedford Ave,40.72079821,-73.95484712,POINT (996766.1215366349 201885.9814224608)
361,3123,8/17/2015 18:48:16,31 St & Thomson Ave,40.74469738,-73.93540375,POINT (1002149.29138501 210596.5717560519)
362,3092,8/18/2015 11:45:04,Berry St & N 8 St,40.7190095,-73.95852515,POINT (995746.9011716227 201233.7954218153)
363,3087,8/18/2015 11:45:19,Metropolitan Ave & Meeker Ave,40.71413311,-73.95234386,POINT (997461.3319900829 199458.0496690476)
364,3104,8/18/2015 14:01:24,Kent Ave & N 7 St,40.72057658,-73.96150225,POINT (994921.3929666 201804.3539854614)
365,3088,8/18/2015 18:00:41,Union Ave & Jackson St,40.7160751,-73.952029,POINT (997548.2306469799 200165.6233124963)
366,3090,8/18/2015 18:13:26,N 8 St & Driggs Ave,40.71774592,-73.95600096,POINT (996446.8422439314 200773.7759735346)
367,3094,8/18/2015 19:20:22,Graham Ave & Withers St,40.7169811,-73.94485918,POINT (999535.5967807544 200496.8765039043)
368,3084,8/18/2015 19:56:12,Devoe St & Leonard St,40.71348658,-73.94792458,POINT (998686.5936672289 199223.1965955875)
369,3095,8/18/2015 22:48:19,Graham Ave & Herbert St,40.71929301,-73.94500379,POINT (999494.9806002241 201339.1507061404)
370,3106,8/19/2015 08:46:11,Driggs Ave & N Henry St,40.72325,-73.94308,POINT (1000027.319430445 202781.144232643)
371,3097,8/19/2015 09:11:47,N Henry St & Richardson St,40.71921585,-73.9424469,POINT (1000203.77032848 201311.4942909838)
372,3091,8/19/2015 11:54:14,Frost St & Meeker St,40.71764,-73.94882,POINT (998437.4770179475 200736.2675377431)
373,3083,8/19/2015 14:04:40,Bushwick Ave & Powers St,40.71247661,-73.94100005,POINT (1000606.492112619 198856.4510315697)
374,3081,8/19/2015 14:12:33,Graham Ave & Grand St,40.711863,-73.944024,POINT (999768.3087090889 198632.3441782436)
375,3073,8/19/2015 18:06:05,Division Ave & Hooper St,40.70691254,-73.95441667,POINT (996888.072375531 196827.0722222824)
376,3075,8/19/2015 18:33:35,Division Ave & Marcy Ave,40.70708701,-73.95796783,POINT (995903.4755103544 196890.1444962268)
377,3079,8/19/2015 20:05:37,Leonard St & Grand St,40.71103537,-73.94714303,POINT (998903.7974947103 198330.276403996)
378,3077,8/19/2015 20:37:25,Stagg St & Union Ave,40.70877084,-73.95095259,POINT (997848.11652732 197504.6255276489)
379,3069,8/20/2015 11:50:00,Lorimer St & Broadway,40.70411791,-73.94818595,POINT (998616.1544225046 195809.8652290671)
380,3076,8/20/2015 13:54:39,Scholes St & Manhattan Ave,40.70870368,-73.9448625,POINT (999536.5746651028 197481.1612053344)
381,3070,8/20/2015 13:57:27,McKibbin St & Manhattan Ave,40.70510918,-73.94407279,POINT (999756.3535917056 196171.7158536616)
382,3074,8/20/2015 14:28:56,Montrose Ave & Bushwick Ave,40.70767788,-73.94016171,POINT (1000840.098456479 197108.2867525075)
383,3065,8/20/2015 19:16:31,Union Ave & Wallabout St,40.70029511,-73.95032283,POINT (998024.4651114467 194416.7621036042)
384,3072,8/21/2015 01:46:49,Leonard St & Boerum St,40.70583339,-73.94644578,POINT (999098.2582035797 196435.1560790725)
385,3067,8/21/2015 08:58:46,Broadway & Whipple St,40.7016657,-73.9437303,POINT (999852.1180966126 194917.214207336)
386,3060,8/21/2015 09:08:46,Willoughby Ave & Tompkins Ave,40.69425403,-73.94626915,POINT (999149.8177130931 192216.4816221023)
387,3068,8/21/2015 10:34:37,Humboldt St & Varet St,40.7031724,-73.940636,POINT (1000709.714528662 195466.7161556968)
388,3063,8/21/2015 14:57:19,Nostrand Ave & Myrtle Ave,40.69527008,-73.95238108,POINT (997454.7496891731 192585.6780733486)
389,3062,8/21/2015 16:29:25,Myrtle Ave & Marcy Ave,40.69539817,-73.94954908,POINT (998240.0377054737 192632.7846354259)
390,3071,8/21/2015 17:45:05,Boerum St & Broadway,40.70538077,-73.94976519,POINT (998178.0247153528 196269.7078376824)
391,3179,8/21/2015 19:25:48,Park Ave & Marcus Garvey Blvd,40.698617,-73.941342,POINT (1000515.074992282 193806.9167725426)
392,3061,8/21/2015 22:44:07,Throop Ave & Myrtle Ave,40.69622937,-73.94371094,POINT (999858.7588414305 192936.6016403009)
393,3064,8/22/2015 18:36:39,Myrtle Ave & Lewis Ave,40.69681963,-73.93756926,POINT (1001561.671616466 193152.8048378837)
394,3066,8/23/2015 12:00:35,Tompkins Ave & Hopkins St,40.69957608,-73.94708417,POINT (998922.6375557578 194155.3240138637)
395,3086,8/24/2015 10:56:19,Graham Ave & Conselyea St,40.715143,-73.944507,POINT (999633.6488906788 199827.2623896089)
396,3093,8/24/2015 12:00:45,N 6 St & Bedford Ave,40.71745169,-73.95850939,POINT (995751.5386958895 200666.2396872085)
397,3114,8/24/2015 14:43:33,India St & East River,40.73165141,-73.96161892,POINT (994887.2846909128 205839.24327411)
398,3105,8/24/2015 21:48:41,N 15 St & Wythe Ave,40.724055,-73.955736,POINT (996519.1294988431 203072.4044716081)
399,3055,8/25/2015 19:21:51,Greene Ave & Nostrand Ave,40.6883337,-73.950916,POINT (997862.4330877643 190058.7758335572)
400,3053,8/25/2015 19:30:52,Marcy Ave & Lafayette Ave,40.6900815,-73.947915,POINT (998694.3197034625 190696.0309744707)
401,3057,8/26/2015 00:27:03,Kosciuszko St & Tompkins Ave,40.69128258,-73.9452416,POINT (999435.4388716524 191134.0716777003)
402,3056,8/26/2015 07:40:25,Kosciuszko St & Nostrand Ave,40.69072549,-73.95133465,POINT (997745.845060807 190930.10999014)
403,3050,8/26/2015 12:02:57,Putnam Ave & Throop Ave,40.6851532,-73.94111,POINT (1000582.703178263 188901.7033477221)
404,3052,8/26/2015 13:52:20,Lewis Ave & Madison St,40.686312,-73.935775,POINT (1002062.015925958 189324.9275565203)
405,3048,8/26/2015 18:17:06,Putnam Ave & Nostrand Ave,40.68402,-73.94977,POINT (998181.1536618965 188487.3498020662)
406,3054,8/26/2015 19:38:00,Greene Ave & Throop Ave,40.6894932,-73.942061,POINT (1000317.904607801 190482.7156530407)
407,3222,8/26/2015 20:07:01,Hanson Pl & St Felix St,40.6851595999,-73.9771136642,POINT (990597.3546865089 188899.3741094116)
408,3223,8/26/2015 21:11:53,E 55 St & 3 Ave,40.7589965596,-73.9686539769,POINT (992933.9594783607 215801.1789898803)
409,3058,8/27/2015 07:04:27,Lewis Ave & Kosciuszko St,40.69237074,-73.93705428,POINT (1001705.637193274 191532.0456334465)
410,3059,8/27/2015 10:52:49,Pulaski St & Marcus Garvey Blvd,40.6933982,-73.939877,POINT (1000922.60475293 191905.829564476)
411,3128,8/27/2015 15:44:35,21 St & 43 Ave,40.75052534,-73.94594845,POINT (999226.0990256703 212717.9053992987)
412,3046,8/27/2015 16:15:23,Marcus Garvey Blvd & Macon St,40.682601,-73.938037,POINT (1001435.634451392 187972.4510236385)
413,3047,8/27/2015 17:36:47,Halsey St & Tompkins Ave,40.6823687,-73.944118,POINT (999749.1040593348 187886.6829432255)
414,3041,8/27/2015 19:17:30,Kingston Ave & Herkimer St,40.67890679,-73.94142771,POINT (1000496.110376754 186625.8969860222)
415,3044,8/27/2015 20:41:40,Albany Ave & Fulton St,40.6800105,-73.938475,POINT (1001314.816668468 187028.571653196)
416,3043,8/27/2015 21:40:21,Lewis Ave & Decatur St,40.6814598,-73.934903,POINT (1002305.168105798 187557.3093845631)
417,3042,8/28/2015 10:37:43,Fulton St & Utica Ave,40.6794268,-73.9298911,POINT (1003695.850754561 186817.7018759488)
418,3049,8/28/2015 18:15:15,Cambridge Pl & Gates Ave,40.68488,-73.96304,POINT (994500.6233693319 188798.8410920345)
419,3133,8/31/2015 12:10:14,E 67 St & Park Ave,40.76735637,-73.96493528,POINT (993962.9510794855 218847.323344366)
420,3158,8/31/2015 14:17:47,W 63 St & Broadway,40.77163851,-73.98261428,POINT (989065.546614367 220405.9832054692)
421,3224,8/31/2015 15:33:26,W 13 St & Hudson St,40.739973541,-74.005138725,POINT (982825.9844238468 208868.9689985422)
422,3163,9/1/2015 09:20:24,Central Park West & W 68 St,40.7734066,-73.97782542,POINT (990391.8157057827 221050.4569803967)
423,3165,9/1/2015 13:01:48,Central Park West & W 72 St,40.77575319,-73.97603963,POINT (990886.2019469175 221905.5286246655)
424,3142,9/2/2015 12:42:44,1 Ave & E 62 St,40.7612274,-73.96094022,POINT (995070.5810160573 216614.8059190254)
425,3176,9/2/2015 14:49:50,W 64 St & West End Ave,40.77452835,-73.98753759,POINT (987701.7243034431 221458.6162434603)
426,3132,9/3/2015 10:46:36,E 59 St & Madison Ave,40.76350532,-73.97109243,POINT (992257.8794661518 217443.6359120224)
427,3134,9/3/2015 12:29:54,3 Ave & E 62 St,40.76312584,-73.96526895,POINT (993871.1353814518 217305.9648544849)
428,3141,9/4/2015 12:35:31,1 Ave & E 68 St,40.76500525,-73.95818491,POINT (995833.2168887942 217991.5532038685)
429,3159,9/4/2015 13:51:03,W 67 St & Broadway,40.77492513,-73.98266566,POINT (989051.078279933 221603.4060035333)
430,3175,9/8/2015 10:43:49,W 70 St & Amsterdam Ave,40.77748046,-73.98288594,POINT (988989.8856153261 222534.3866245208)
431,3139,9/8/2015 12:33:23,E 72 St & Park Ave,40.77122923,-73.96432627,POINT (994131.0726202339 220258.4029885342)
432,3172,9/8/2015 13:29:38,W 74 St & Columbus Ave,40.7785669,-73.97754961,POINT (990467.7264754119 222930.5471076661)
433,3156,9/8/2015 14:53:03,E 72 St & York Ave,40.76663814,-73.95348296,POINT (997135.3901368795 218587.1256313124)
434,3160,9/9/2015 11:13:44,Central Park West & W 76 St,40.77896784,-73.97374737,POINT (991520.7284416199 223076.9158210085)
435,3178,9/9/2015 14:14:29,Riverside Dr & W 78 St,40.78414472,-73.98362492,POINT (988784.7648887215 224962.3631495546)
436,3135,9/9/2015 14:46:30,E 75 St & 3 Ave,40.77112927,-73.95772297,POINT (995960.1022504946 220222.7980293793)
437,3140,9/10/2015 15:58:34,1 Ave & E 78 St,40.77140426,-73.9535166,POINT (997125.1502858921 220323.5763298766)
438,3221,9/10/2015 19:52:41,47 Ave & 31 St,40.743,-73.93561,POINT (1002092.595146032 209978.1201738931)
439,3149,9/11/2015 09:18:12,E 82 St & 2 Ave,40.77517793,-73.95324922,POINT (997198.4764435254 221698.4898033366)
440,3170,9/11/2015 11:02:26,W 84 St & Columbus Ave,40.78499979,-73.97283406,POINT (991772.9902740861 225274.6369699028)
441,3169,9/11/2015 20:35:46,Riverside Dr & W 82 St,40.78720869,-73.98128127,POINT (989433.555330398 226078.8020392123)
442,3147,9/14/2015 09:11:27,E 85 St & 3 Ave,40.77801203,-73.95407149,POINT (996970.1924892674 222730.9271642821)
443,3177,9/14/2015 15:28:22,W 84 St & Broadway,40.7867947,-73.977112,POINT (990588.1410844475 225928.2455105801)
444,3150,9/14/2015 16:14:25,E 85 St & York Ave,40.77536905,-73.94803392,POINT (998642.9068998098 221768.9351400896)
445,3146,9/15/2015 11:40:15,E 81 St & 3 Ave,40.77573034,-73.9567526,POINT (996228.0525291893 221899.2528322045)
446,3144,9/15/2015 12:09:12,E 81 St & Park Ave,40.77677702,-73.9590097,POINT (995602.7345306586 222280.2929271202)
447,3136,9/15/2015 12:59:03,5 Ave & E 63 St,40.76650452,-73.97147595,POINT (992151.2822121241 218536.3085943996)
448,3145,9/15/2015 14:35:48,E 84 St & Park Ave,40.77862688,-73.95772073,POINT (995959.4042606568 222954.4288755567)
449,3148,9/16/2015 09:16:18,E 84 St & 1 Ave,40.77565541,-73.95068615,POINT (997908.2671597162 221872.8410273739)
450,3164,9/16/2015 10:19:59,Columbus Ave & W 72 St,40.7770575,-73.97898475,POINT (990070.3905766872 222380.5232081173)
451,3166,9/21/2015 11:55:27,Riverside Dr & W 72 St ,40.7805779901,-73.9856243134,POINT (988231.2844316573 223662.7851366031)
452,3082,9/23/2015 10:27:02,Hope St & Union Ave,40.71167351,-73.95141312,POINT (997719.850635065 198562.0846183033)
453,3085,9/23/2015 14:11:33,Roebling St & N 4 St,40.71469,-73.95739,POINT (996062.332227141 199660.2208535956)
454,3080,9/23/2015 15:16:02,S 4 St & Rodney St,40.70934,-73.95608,POINT (996426.467313599 197711.2333125745)
455,3231,9/24/2015 16:04:54,E 67 St & Park Ave,40.7678008015,-73.9659208059,POINT (993689.8967602748 219009.1367193836)
456,3167,9/28/2015 11:39:47,Amsterdam Ave & W 73 St,40.7796680901,-73.9809304476,POINT (989531.3024799203 223331.5259481382)
457,3230,9/29/2015 06:28:48,Penn Station Valet,40.751283597,-73.9969244599,POINT (985102.1323022295 212989.55737274)
458,3226,9/29/2015 14:36:49,W 82 St & Central Park West,40.78275,-73.97137,POINT (992178.696335198 224455.0910376559)
459,3137,9/29/2015 14:40:52,5 Ave & E 73 St,40.77282817,-73.96685276,POINT (993431.0534800116 220840.6752829808)
460,3232,9/29/2015 19:35:46,Bond St & Fulton St,40.6896218879,-73.9830426872,POINT (988952.6696487836 190524.741740635)
461,3122,10/6/2015 15:28:10,48 Ave & 5 St,40.7443632871,-73.955873251,POINT (996477.3589752968 210471.3311074401)
462,3229,10/7/2015 01:42:26,Marcy Ave & MacDonough St,40.6806176846,-73.946249485,POINT (999158.3193951669 187248.3676167841)
463,3168,10/7/2015 12:19:31,Central Park West & W 85 St,40.78472675,-73.96961715,POINT (992663.8749276558 225175.4518231401)
464,3161,10/7/2015 17:20:34,W 76 St & Columbus Ave,40.7801839724,-73.9772853255,POINT (990540.7683644295 223519.7200865111)
465,3143,10/7/2015 18:30:47,5 Ave & E 78 St,40.7768286344,-73.9638876915,POINT (994251.7110698561 222298.5032101512)
466,3157,10/8/2015 12:26:48,East End Ave & E 86 St,40.77518615,-73.94446054,POINT (999632.6585713123 221702.9058641975)
467,3116,10/8/2015 15:02:55,Huron St & Franklin St,40.73266,-73.95826,POINT (995818.031438324 206207.1298729619)
468,3162,10/9/2015 13:00:55,W 78 St & Broadway,40.78339981,-73.98093133,POINT (989530.7621358561 224691.1179953046)
469,3173,10/9/2015 16:34:24,Riverside Blvd & W 67 St,40.7775070275,-73.9888858795,POINT (987328.1497237323 222543.7983131061)
470,3233,10/10/2015 11:09:48,E 48 St & 5 Ave,40.7572456791,-73.9780591428,POINT (990328.5549964638 215162.4835856584)
471,3155,10/14/2015 09:17:05,Lexington Ave & E 63 St,40.76440023,-73.96648977,POINT (993532.7683356915 217770.1353510506)
472,3171,10/14/2015 12:22:16,Amsterdam Ave & W 82 St,40.78524672,-73.97667321,POINT (990709.8009202422 225364.2955761975)
473,3235,10/16/2015 11:45:45,E 41 St & Madison Ave,40.7521652806,-73.979921937,POINT (989812.9056687996 213311.4057654148)
474,3234,10/21/2015 09:15:12,E 40 St & Madison Ave,40.7515936845,-73.9804315567,POINT (989671.7549905459 213103.1228884538)
475,3099,10/27/2015 17:45:34,Leonard St & Manhattan Ave,40.7215224034,-73.948982656,POINT (998391.5637650315 202150.7196496897)
476,3237,10/30/2015 12:50:06,21 St & 41 Ave,40.7538334344,-73.9426767826,POINT (1000131.793262469 213923.7271481077)
477,3236,11/2/2015 09:02:37,PABT Valet,40.758984814,-73.9937996864,POINT (985967.7069793681 215795.4067298223)
478,3089,11/2/2015 19:25:31,Leonard St & Meeker Ave,40.7173184039,-73.9482021332,POINT (998608.8235580634 200619.2009421838)
479,3096,11/3/2015 17:03:38,Union Ave & N 12 St,40.71924,-73.95242,POINT (997439.2136907325 201318.6338846026)
480,3154,11/4/2015 15:23:21,E 77 St & 3 Ave,40.77314236,-73.95856158,POINT (995727.4729386261 220956.1228747542)
481,3151,11/4/2015 17:06:14,E 81 St & York Ave,40.7728384,-73.94989233,POINT (998128.7154903088 220846.6348107055)
482,3078,11/6/2015 13:55:17,Broadway & Roebling St,40.70925562,-73.95982218,POINT (995388.9921355689 197679.9931139228)
483,3138,12/12/2015 11:57:08,E 77 St & Park Ave,40.774405455,-73.9617526531,POINT (994843.4194691243 221415.9086256268)
484,3153,12/11/2015 20:26:44,E 71 St & 2 Ave,40.7681754674,-73.9591026306,POINT (995578.4594581802 219146.4481809026)
485,3238,12/5/2015 17:21:11,E 80 St & 2 Ave,40.7739139024,-73.9543953538,POINT (996881.2736878511 221237.7948839916)
486,3241,12/24/2015 17:08:10,Monroe St & Tompkins Ave,40.686203,-73.944694,POINT (999588.4661099353 189283.5280303492)
487,3242,12/30/2015 15:24:41,Schermerhorn St & Court St,40.6910292568,-73.9918336272,POINT (986514.6832998 191037.1378421019)
488,3243,1/3/2016 09:17:31,E 58 St & 1 Ave,40.7589238638,-73.9622622728,POINT (994704.6993819799 215775.3917806805)
489,3244,1/21/2016 18:27:35,University Pl & E 8 St,40.7314372409,-73.9949034154,POINT (985662.5188058845 205758.9254811504)
490,3100,3/26/2016 11:43:31,Nassau Ave & Newell St,40.7248125644,-73.9475262165,POINT (998794.5580045865 203349.6650759041)
491,3246,3/23/2016 14:23:51,Montague St & Clinton St,40.6942811414,-73.9923003316,POINT (986385.1535664852 192221.8832781698)
492,3249,4/6/2016 11:54:34,Verona Pl & Fulton St,40.680356084,-73.9476791024,POINT (998761.8556515891 187152.8189151955)
493,3131,4/21/2016 17:51:17,E 68 St & 3 Ave,40.7671284035,-73.9622461796,POINT (994707.8694551825 218764.5772091117)
494,3253,5/7/2016 10:48:40,Bike The Branches - Central Branch,40.6728064123,-73.9688658714,POINT (992886.4181014221 184399.4579312366)
495,3252,5/7/2016 12:10:03,Bike The Branches - Red Hook Branch,40.6753495307,-74.0100203454,POINT (981470.5230044874 185324.612788073)
496,3255,5/17/2016 16:33:01,8 Ave & W 31 St,40.750585347,-73.9946848154,POINT (985722.6805097898 212735.1920898856)
497,3254,5/18/2016 12:24:43,Soissons Landing,40.6923166072,-74.014865756,POINT (980127.5358339972 191506.4016203779)
498,3152,6/3/2016 06:32:21,3 Ave & E 71 St,40.76873687,-73.96119945,POINT (994997.5556603492 219350.7215471617)
499,3256,6/15/2016 17:05:05,Pier 40 - Hudson River Park,40.7277140778,-74.0112957358,POINT (981119.2110616667 204402.6218799474)
500,3257,6/18/2016 10:35:18,Adventures NYC,40.7737686702,-73.971169889,POINT (992235.1913545389 221182.9079467111)
501,3260,6/23/2016 16:27:46,Mercer St & Bleecker St,40.7270636335,-73.9966213703,POINT (985186.4489353303 204165.461018596)
502,3259,6/24/2016 14:30:54,9 Ave & W 28 St,40.7493702419,-73.9992338419,POINT (984462.2836302936 212292.4464083023)
503,3219,7/1/2016 21:59:50,NYCBS Depot - STY,40.729193,-73.976655,POINT (990720.2863420369 204942.099571739)
504,3017,7/4/2016 15:30:15,NYCBS Depot - FAR,40.751483,-73.996764,POINT (985146.5878467551 213062.2079253607)
505,3263,7/5/2016 16:59:03,Cooper Square & E 7 St,40.7292364991,-73.990868032,POINT (986781.0092032242 204957.2173990258)
506,3245,7/6/2016 09:03:15,Kiosk in a box Motivate,40.6466778989,-74.0163034201,POINT (979725.7585335689 174878.9964266619)
507,3264,7/6/2016 18:06:13,E 61 St & Park Ave,40.7642100717,-73.969104588,POINT (992808.4543022449 217700.588132418)
508,3265,7/8/2016 12:48:01,E 2 St & 2 Ave,40.724563429,-73.989443779,POINT (987175.9592350206 203254.7172985118)
509,3250,7/11/2016 19:54:42,NYCBS Depot - PIT,40.7169097805,-73.9838379622,POINT (988730.2865142721 200466.4949478321)
510,3036,7/12/2016 15:01:45,8D OPS 01,40.6848687476,-74.0254497528,POINT (977191.6699435295 188793.6043207484)
511,3040,7/18/2016 15:29:20,SSP Tech Workshop,40.646678,-74.016263,POINT (979736.9752231225 174879.0311751234)
512,3258,7/19/2016 16:19:35,W 27 St & 10 Ave,40.7501815633,-74.0021842718,POINT (983644.7991933954 212588.043538307)
513,3266,7/28/2016 10:54:03,Kiosk in a box Deployment,40.708610981,-73.9285039902,POINT (1004071.91000256 197450.6663736859)
514,3282,8/1/2016 13:22:19,5 Ave & E 88 St,40.78307,-73.95939,POINT (995496.3431691157 224572.9891185946)
515,3285,8/1/2016 14:29:18,W 87 St  & Amsterdam Ave,40.78839,-73.9747,POINT (991255.9038285685 226509.651645338)
516,3284,8/1/2016 17:40:27,E 88 St & Park Ave,40.7814107002,-73.9559590816,POINT (996446.7895041368 223968.909024489)
517,3287,8/1/2016 21:43:06,W 87 St & West End Ave,40.790261,-73.977131,POINT (990582.5499046999 227191.1361151533)
518,3288,8/2/2016 11:07:49,E 88 St & 1 Ave,40.778301,-73.9488134,POINT (998426.3922260153 222837.0159101411)
519,3291,8/2/2016 14:25:51,Riverside Dr & W 91 St,40.7933718,-73.97685115,POINT (990659.742372845 228324.5281847301)
520,3286,8/2/2016 14:46:42,E 89 St & 3 Ave,40.7806284,-73.9521667,POINT (997497.2156023674 223684.4413677557)
521,3292,8/3/2016 11:56:32,5 Ave & E 93 St,40.7857851,-73.957481,POINT (996024.5324946424 225562.4433138854)
522,3294,8/3/2016 17:43:43,E 91 St & Park Ave,40.7835016,-73.955327,POINT (996621.4510706535 224730.7833903533)
523,3312,8/4/2016 12:23:05,1 Ave & E 94 St,40.7817212,-73.94594,POINT (999221.4260231184 224083.5883215303)
524,3290,8/4/2016 14:38:32,E 89 St & York Ave,40.7779453,-73.946041,POINT (999194.3024037168 222707.8832525204)
525,3295,8/4/2016 15:13:05,Central Park W & W 96 St,40.79127,-73.964839,POINT (993986.1235405843 227559.8769542992)
526,3301,8/4/2016 16:06:26,Columbus Ave & W 95 St,40.7919557,-73.968087,POINT (993086.6574287454 227809.356764741)
527,3307,8/5/2016 10:25:36,West End Ave & W 94 St,40.7941654,-73.974124,POINT (991414.7842555571 228613.8754256197)
528,3314,8/5/2016 12:57:22,W 95 St & Broadway,40.7937704,-73.971888,POINT (992033.9546120506 228470.1540476853)
529,3336,8/5/2016 16:12:42,E 97 St & Madison Ave,40.787801,-73.953559,POINT (997110.2390259665 226297.4560468094)
530,3325,8/5/2016 17:07:33,E 95 St & 3 Ave,40.7849032,-73.950503,POINT (997957.0896843054 225242.1520211747)
531,3425,8/6/2016 16:53:50,2 Ave  & E 104 St,40.7892105,-73.94370784,POINT (999837.8489080039 226812.5848006927)
532,3305,8/8/2016 09:27:48,E 91 St & 2 Ave,40.7811222993,-73.9496558905,POINT (998192.4694189951 223864.7752590397)
533,3320,8/8/2016 14:36:01,Central Park West & W 100 St,40.793393,-73.9635556,POINT (994341.1767333705 228333.5043362805)
534,3351,8/8/2016 16:30:34,E 102 St & 1 Ave,40.7869946,-73.94164802,POINT (1000408.77089464 226005.6298830068)
535,3341,8/8/2016 16:49:12,Central Park West & W 102 St,40.795346,-73.96186,POINT (994810.3656193189 229045.2497033179)
536,3289,8/8/2016 17:23:58,W 90 St & Amsterdam Ave,40.790179481,-73.972889185,POINT (991757.140599343 227161.7710269726)
537,3309,8/9/2016 11:40:31,E 97 St & 3 Ave,40.7859201,-73.94860294,POINT (998483.0514612927 225612.946364772)
538,3327,8/9/2016 11:53:51,3 Ave & E 100 St,40.7877214,-73.94728331,POINT (998848.0929659243 226269.4386363656)
539,3350,8/9/2016 14:54:54,W 100 St & Broadway,40.7973721,-73.97041192,POINT (992442.2243567419 229782.5129137321)
540,3316,8/9/2016 16:52:45,W 104 St & Amsterdam Ave,40.7989937,-73.9662173778,POINT (993603.3638277466 230373.7383674661)
541,3302,8/9/2016 22:23:23,Columbus Ave & W 103 St,40.7969347,-73.9643412291,POINT (994123.1167556306 229623.7788669955)
542,3345,8/10/2016 13:51:06,Madison Ave & E 99 St,40.7894854155,-73.9524292946,POINT (997422.738812537 226911.3141981045)
543,3363,8/10/2016 14:11:27,E 102 St & Park Ave,40.7904828,-73.95033068,POINT (998003.6571989465 227275.018164002)
544,3357,8/11/2016 12:11:29,W 106 St & Amsterdam Ave,40.8008363,-73.9664492472,POINT (993538.9092366798 231045.0372456356)
545,3323,8/11/2016 12:36:10,W 106 St & Central Park West,40.7981856,-73.9605909006,POINT (995161.2938020959 230079.9701840219)
546,3367,8/11/2016 13:15:22,5 Ave & E 103 St,40.7922553,-73.95249933,POINT (997402.7981761678 227920.4678538409)
547,3343,8/11/2016 16:12:41,W 107 St & Columbus Ave,40.7997568,-73.9621128676,POINT (994739.655510411 230652.2272182929)
548,3391,8/11/2016 22:38:23,E 106 St & 1 Ave,40.7892529,-73.93956237,POINT (1000985.759205616 226828.7974183994)
549,3385,8/12/2016 16:21:48,2 Ave & E 105 St,40.7898175,-73.94296109,POINT (1000044.487245088 227033.8694792421)
550,3390,8/12/2016 17:15:43,E 109 St & 3 Ave,40.79329668,-73.9432083,POINT (999975.2112050344 228301.4099808866)
551,3400,8/12/2016 18:40:16,E 110 St & Madison Ave,40.7961535,-73.94782145,POINT (998697.2434840242 229341.4538440518)
552,3387,8/12/2016 18:48:09,E 106 St & Madison Ave,40.7934337,-73.94945003,POINT (998246.8926826351 228350.2721740222)
553,3379,8/16/2016 17:18:39,E 103 St & Lexington Ave,40.7903051,-73.94755757,POINT (998771.582450287 227210.7235109905)
554,3331,8/16/2016 18:58:30,Riverside Dr & W 104 St,40.8013434,-73.9711457439,POINT (992238.5696602423 231229.3283644536)
555,3366,8/16/2016 19:04:40,West End Ave & W 107 St,40.8021174,-73.9681805305,POINT (993059.4141508712 231511.607999829)
556,3408,8/18/2016 11:52:25,Congress St & Clinton St,40.6881529,-73.99520919,POINT (985578.6358236762 189989.1276696581)
557,3411,8/18/2016 13:58:32,Bond St & Bergen St,40.6849668,-73.98620772,POINT (988075.1971662374 188828.6034653851)
558,3413,8/18/2016 19:00:50,Wyckoff St & 3 Ave,40.6827549,-73.98258555,POINT (989079.9421294511 188022.9231106915)
559,3417,8/19/2016 13:31:17,Baltic St & 5 Ave,40.6795766,-73.97854971,POINT (990199.5761791341 186865.2249848503)
560,3416,8/19/2016 15:26:22,7 Ave & Park Pl,40.6776147,-73.97324283,POINT (991671.7413229636 186150.8534447646)
561,3415,8/19/2016 23:21:46,Prospect Pl & 6 Ave,40.6793307,-73.97519523,POINT (991130.0194490497 186775.8821860797)
562,3419,8/20/2016 07:17:13,Douglass St & 4 Ave,40.6792788,-73.98154004,POINT (989370.1838770036 186756.5389250192)
563,3420,8/22/2016 12:54:18,Douglass St & 3 Ave,40.6802133,-73.98432695,POINT (988597.1260804721 187096.8535949666)
564,3303,8/22/2016 14:27:15,Butler St & Court St,40.6849894,-73.99440329,POINT (985802.2097905815 188836.5857475883)
565,3422,8/22/2016 14:28:57,Columbia St & Degraw St,40.6859296,-74.00242364,POINT (983577.8292610585 189179.0876527849)
566,3311,8/22/2016 17:12:13,Columbia St & Kane St,40.68763155,-74.0016256,POINT (983799.1686618682 189799.1525016818)
567,3321,8/22/2016 17:39:59,Clinton St & Union St,40.6831164,-73.99785267,POINT (984845.5642283483 188154.1552290627)
568,3383,8/23/2016 12:36:33,Cathedral Pkwy & Broadway,40.804213,-73.96699104,POINT (993388.4441261067 232275.2305464068)
569,3335,8/23/2016 13:53:02,Union St & 4 Ave,40.6772744,-73.98282002,POINT (989015.3028806712 186026.2061697811)
570,3389,8/23/2016 15:09:39,Carroll St & Columbia St,40.6830456,-74.00348559,POINT (983283.2669304051 188128.3726723441)
571,3393,8/23/2016 16:31:55,Richards St & Delavan St,40.6794327,-74.00785041,POINT (982072.5602767981 186812.1671918355)
572,3392,8/23/2016 22:33:31,Commerce St & Van Brunt St,40.6812117,-74.00860912,POINT (981862.183338786 187460.3279675671)
573,3395,8/24/2016 14:38:54,Henry St & W 9 St,40.6763744,-74.00324957,POINT (983348.6372305175 185697.8597746778)
574,3315,8/24/2016 14:47:34,Henry St & Degraw St,40.6847514,-73.99917254,POINT (984479.4912722536 188749.8269324222)
575,3403,8/24/2016 15:27:20,4 Ave & 9 St,40.6705135,-73.98876585,POINT (987366.3921426779 183562.7497677483)
576,3373,8/24/2016 17:03:48,3 St & 3 Ave,40.6750705,-73.98775226,POINT (987647.3333861121 185223.0324515396)
577,3401,8/24/2016 18:05:03,2 Ave & 9 St,40.6724811,-73.99331394,POINT (986104.6815028336 184279.4733760198)
578,3398,8/24/2016 19:07:23,Smith St & 9 St,40.6746957,-73.99785768,POINT (984844.2497297119 185086.2518532931)
579,3396,8/24/2016 20:03:53,Clinton St & 4 Place,40.6783563,-74.00014502,POINT (984209.7756797578 186419.906158751)
580,3339,8/24/2016 20:25:18,Berkeley Pl & 6 Ave,40.6765304,-73.97846879,POINT (990222.2934076205 185755.4123166898)
581,3368,8/25/2016 06:54:18,5 Ave & 3 St,40.6728155,-73.98352355,POINT (988820.4665649447 184401.6638827437)
582,3308,8/25/2016 09:46:17,Kane St & Clinton St,40.6861758,-73.99645295,POINT (985233.7329043449 189268.7960949282)
583,3405,8/25/2016 14:03:17,5 St & 6 Ave,40.6704836,-73.98208968,POINT (989218.3870436725 183552.1644367647)
584,3304,8/25/2016 14:31:38,6 Ave & 9 St,40.668127,-73.98377641,POINT (988750.6411080714 182693.4970821812)
585,3310,8/25/2016 15:03:13,14 St & 7 Ave,40.663779,-73.98396846,POINT (988697.6537797005 181109.3882338369)
586,3306,8/25/2016 16:26:10,10 St & 7 Ave,40.6662078,-73.98199886,POINT (989243.9009625057 181994.3746238301)
587,3297,8/25/2016 19:05:53,6 St & 7 Ave,40.6686627,-73.97988067,POINT (989831.3267060409 182888.8919468753)
588,3404,8/25/2016 22:13:02,7 St & 5 Ave,40.6704922,-73.98541675,POINT (988295.4453735255 183555.1264817994)
589,3402,8/26/2016 10:16:22,Court St & State St,40.6902375,-73.99203074,POINT (986460.0465882698 190748.672603094)
590,3313,8/26/2016 13:14:32,6 Ave & 12 St,40.6663181,-73.9854617,POINT (988283.2284779052 182034.3815989244)
591,3322,8/26/2016 17:30:00,12 St & 4 Ave,40.668603,-73.9904394,POINT (986902.2195436019 182866.6453214517)
592,3333,8/26/2016 21:07:38,Columbia St & Lorraine St,40.6747055,-74.0075572,POINT (982153.7382873037 185089.9054313514)
593,3317,8/27/2016 01:31:40,10 St & 5 Ave,40.6686273,-73.98700053,POINT (987856.2000053884 182875.6213454486)
594,3330,8/27/2016 08:24:05,Henry St & Bay St,40.6725058,-74.00494695,POINT (982877.7399145996 184288.4402568242)
595,3427,8/29/2016 11:24:03,Lafayette St & Jersey St,40.7243052725,-73.9960098267,POINT (985355.9951915354 203160.511792972)
596,3364,8/29/2016 16:04:21,Carroll St & 5 Ave,40.6751622,-73.9814832,POINT (989386.2664528142 185256.7467461548)
597,3324,8/29/2016 16:07:59,3 Ave & 14 St,40.6685455,-73.99333264,POINT (986099.6033469297 182845.6220977206)
598,3388,8/29/2016 17:23:58,President St & Henry St,40.6828003,-73.99990419,POINT (984276.5731299861 188038.9835600021)
599,3298,8/29/2016 18:00:40,Warren St & Court St,40.686371,-73.99383324,POINT (985960.2738792227 189339.9534206234)
600,3421,8/29/2016 18:18:35,Hoyt St & Warren St,40.6843549,-73.98901629,POINT (987296.2869061447 188605.5603730611)
601,3329,8/30/2016 11:22:07,Degraw St & Smith St,40.6829151,-73.99318208,POINT (986140.9629714186 188080.8820986946)
602,3410,8/30/2016 13:07:49,Dean St & Hoyt St,40.6864442,-73.98759104,POINT (987691.4663138353 189366.8058687717)
603,3361,8/30/2016 17:43:12,Carroll St & 6 Ave,40.6740886,-73.9787282,POINT (990150.5546999006 184865.7771414805)
604,3382,8/30/2016 17:47:42,Carroll St & Smith St,40.680611,-73.99475825,POINT (985703.8594817179 187241.4017777906)
605,3397,8/30/2016 17:59:41,Court St & Nelson St,40.6763947,-73.99869893,POINT (984610.8895028433 185705.2416079249)
606,3300,8/30/2016 18:17:11,Prospect Park West & 8 St,40.6651468153,-73.9763760567,POINT (990803.8909841651 181608.1986106728)
607,3386,8/30/2016 19:19:21,1 Pl & Clinton St,40.6809591,-73.99905709,POINT (984511.5255380345 187368.1825631277)
608,3340,8/30/2016 21:19:44,Wolcott St & Dwight St,40.6753274,-74.0100698,POINT (981456.8041949553 185316.5515138066)
609,3326,8/31/2016 09:13:51,Clinton St & Centre St,40.67434,-74.00194698,POINT (983709.931985212 184956.6589112134)
610,3353,8/31/2016 12:02:23,Reed St & Van Brunt St,40.6747844,-74.01612847,POINT (979776.1930346335 185118.9723933369)
611,3342,8/31/2016 18:52:56,Pioneer St & Richards St,40.6777748,-74.0094613,POINT (981625.6883271895 186208.1906875979)
612,3374,9/1/2016 15:48:34,Central Park North & Adam Clayton Powell Blvd,40.799484,-73.955613,POINT (996539.2975092951 230553.6817753037)
613,3293,9/1/2016 15:48:39,W 92 St & Broadway,40.7921,-73.9739,POINT (991477.0316384578 227861.3972340081)
614,3381,9/1/2016 18:09:02,3 St & Hoyt St,40.6777287,-73.99364123,POINT (986013.754017823 186191.3174248344)
615,3319,9/1/2016 21:47:44,14 St & 5 Ave,40.666287,-73.98895053,POINT (987315.3555047618 182022.9096296731)
616,3347,9/2/2016 09:22:03,Van Brunt St & Wolcott St,40.6773429,-74.01275056,POINT (980713.3126427154 186050.9527876607)
617,3428,9/2/2016 11:47:20,8 Ave & W 16 St,40.740983,-74.001702,POINT (983778.3581450209 209236.7097475312)
618,3377,9/2/2016 19:34:29,Carroll St & Bond St,40.6786115,-73.99037292,POINT (986920.2611107711 186513.0295578429)
619,3394,9/3/2016 12:27:58,Columbia St & W 9 St,40.6769993,-74.00647134,POINT (982455.0024202425 185925.5783514532)
620,3384,9/3/2016 13:01:58,Smith St & 3 St,40.6787242,-73.99599099,POINT (985361.9763648666 186553.9681224466)
621,3365,9/6/2016 12:04:29,3 St & 7 Ave,40.6703837,-73.97839676,POINT (990242.8252617342 183515.9990811078)
622,3418,9/6/2016 12:54:27,Plaza St West & Flatbush Ave,40.6750207,-73.97111473,POINT (992262.3323940254 185205.9724184758)
623,3344,9/7/2016 13:50:47,Pioneer St & Van Brunt St,40.679043,-74.011169,POINT (981152.0769169846 186670.2881897794)
624,3429,9/7/2016 16:32:30,Hanson Pl & Ashland Pl,40.6850680731,-73.977907598,POINT (990377.1714781541 188865.9717067287)
625,3423,9/7/2016 19:06:25,West Drive & Prospect Park West,40.6610633719,-73.9794525504,POINT (989950.7412941257 180120.2703259224)
626,3355,9/8/2016 12:35:05,E 66 St & Madison Ave,40.7680088931,-73.9684528112,POINT (992988.5069922002 219084.6886618536)
627,3359,9/8/2016 13:26:00,E 68 St & Madison Ave,40.7691572,-73.96703464,POINT (993381.1800623756 219503.1996191238)
628,3354,9/8/2016 17:29:30,3 St & Prospect Park West,40.668132,-73.97363831,POINT (991563.0851855718 182696.0023567961)
629,3430,9/9/2016 13:08:29,Richardson St & N Henry St,40.7190789118,-73.9422369003,POINT (1000262.015321848 201261.6418340745)
630,3283,9/9/2016 13:21:07,W 89 St & Columbus Ave,40.7882213,-73.97041561,POINT (992442.3286675073 226448.5601258117)
631,3378,9/12/2016 12:02:11,E 76 St & Park Ave,40.773763,-73.96222088,POINT (994713.8349878956 221181.784487379)
632,3370,9/12/2016 16:11:57,78 St & 2 Ave,40.7727966,-73.95577801,POINT (996498.5202417679 220830.5279274859)
633,3356,9/12/2016 17:07:43,Amsterdam Ave & W 66 St,40.7746671,-73.98470567,POINT (988486.0747624603 221509.2917896165)
634,3412,9/12/2016 18:21:47,Pacific St & Nevins St,40.6853761,-73.98302136,POINT (988958.8840157827 188977.8785607855)
635,3338,9/12/2016 22:29:48,2 Ave & E 99 St,40.7862586,-73.94552579,POINT (999335.1096722498 225736.7884098787)
636,3424,9/13/2016 07:19:17,E 106 St & Lexington Ave,40.791976,-73.945993,POINT (999204.4446638089 227819.7530810512)
637,3349,9/13/2016 12:39:29,Grand Army Plaza & Plaza St West,40.6729679,-73.97087984,POINT (992327.7359115082 184458.1003617771)
638,3328,9/13/2016 15:03:38,W 100 St & Manhattan Ave,40.795,-73.9645,POINT (994079.4423058707 228918.8826586523)
639,3348,9/13/2016 17:34:28,Coffey St & Conover St,40.677236,-74.015665,POINT (979904.9127130276 186012.1371663976)
640,3431,9/14/2016 21:00:08,E 35 St & 3 Ave,40.746524,-73.977885,POINT (990377.7861742945 211256.2416875273)
641,3360,9/15/2016 11:49:30,Amsterdam Ave & W 79 St,40.7829391,-73.9786517,POINT (990162.1099754825 224523.4113199034)
642,3409,9/19/2016 13:34:51,Bergen St & Smith St,40.6867443,-73.99063168,POINT (986848.1720179472 189476.0362148738)
643,3414,9/20/2016 17:35:51,Bergen St & Flatbush Ave,40.6809447235,-73.9756733179,POINT (990997.2504423418 187363.8802731838)
644,3372,9/21/2016 13:29:30,E 74 St & 1 Ave,40.7689738,-73.95482273,POINT (996763.8301102995 219437.889673955)
645,3358,9/22/2016 16:22:20,Garfield Pl & 8 Ave,40.6711978,-73.97484126,POINT (991229.0499842945 183812.862097171)
646,3432,9/22/2016 18:19:11,Bike in Movie Night | Prospect Park Bandshell,40.662987,-73.976918,POINT (990653.7492873879 180821.2770838901)
647,3399,9/23/2016 16:58:03,7 St & 3 Ave,40.6726029815,-73.9898300171,POINT (987071.100121072 184323.9712623377)
648,3375,9/28/2016 16:22:06,3 Ave & E 72 St,40.7699426,-73.96060712,POINT (995161.4305070703 219790.082257169)
649,3362,9/29/2016 11:16:24,Madison Ave & E 82 St,40.7781314,-73.96069399,POINT (995136.0296802894 222773.5253406701)
650,3376,9/29/2016 15:44:21,E 65 St & 2 Ave,40.7647185194,-73.9622206986,POINT (994715.3064007646 217886.5798829514)
651,3332,9/30/2016 15:03:29,Degraw St & Hoyt St,40.6819904427,-73.9907902479,POINT (986804.3775321619 187744.0633794728)
652,3435,9/30/2016 16:41:10,Grand St & Elizabeth St,40.718822,-73.99596,POINT (985369.898278631 201162.7875198031)
653,3436,9/30/2016 17:01:43,Greenwich St & Hubert St,40.721319,-74.010065,POINT (981460.0609268496 202072.6557350773)
654,3434,9/30/2016 17:26:46,W 88 St & West End Ave,40.7902541733,-73.9771834016,POINT (990568.0402661496 227188.6451296664)
655,3346,2016-10-04 17:14:21,Berkeley Pl & 7 Ave,40.6751468387,-73.9752320945,POINT (991120.2254536267 185251.5785882987)
656,3407,2016-10-04 18:03:36,Union St & Nevins St,40.6790979972,-73.9876547456,POINT (987674.1755760403 186690.369041989)
657,3438,2016-11-01 22:16:49,E 76 St & 3 Ave,40.7722485377,-73.9584213495,POINT (995766.4680754703 220630.4919723732)
658,3440,2016-11-30 16:47:54,Fulton St & Adams St,40.6924182926,-73.989494741,POINT (987163.2381722566 191543.2734844205)
659,3371,2016-12-19 21:46:01,4 Ave & 2 St,40.6746134225,-73.9850114286,POINT (988407.6260543973 185056.6242422636)
660,3239,2016-12-22 16:31:05,Bressler,40.6465383671,-74.0165877342,POINT (979646.8510061911 174828.1759818294)
